City_ID,City,Country,Lat,Lng,Max Temp,Humidity,Cloudiness,Wind Speed,Current Description
0,Tromso,NO,69.6496,18.957,17.62,67,20,17.27,few clouds
1,Nanortalik,GL,60.1432,-45.2371,26.87,79,94,38.34,light snow
2,Roebourne,AU,-20.7833,117.1333,86.43,29,35,15.19,scattered clouds
3,Mehamn,NO,71.0357,27.8492,30.38,74,40,25.32,scattered clouds
4,Hobart,AU,-42.8794,147.3294,62.02,57,40,3.0,scattered clouds
5,Busselton,AU,-33.65,115.3333,60.04,74,61,15.86,broken clouds
6,Port Hardy,CA,50.6996,-127.4199,37.4,80,90,4.61,overcast clouds
7,Port Alfred,ZA,-33.5906,26.891,68.81,93,100,10.47,overcast clouds
8,Te Anau,NZ,-45.4167,167.7167,49.26,70,76,5.19,broken clouds
9,Hermanus,ZA,-34.4187,19.2345,60.91,95,100,11.05,light rain
10,Tautira,PF,-17.7333,-149.15,86.02,75,76,16.17,broken clouds
11,Ushuaia,AR,-54.8,-68.3,49.66,57,40,28.77,scattered clouds
12,Port Elizabeth,ZA,-33.918,25.5701,65.1,100,90,14.97,overcast clouds
13,Barrow,US,71.2906,-156.7887,8.62,78,90,19.57,light snow
14,Upernavik,GL,72.7868,-56.1549,25.7,72,100,3.94,overcast clouds
15,Rikitea,PF,-23.1203,-134.9692,76.33,74,98,8.57,overcast clouds
16,Katherine,AU,-14.4667,132.2667,79.12,83,90,8.05,overcast clouds
17,Paita,PE,-5.0892,-81.1144,72.16,79,90,18.52,overcast clouds
18,Havelock,US,34.8791,-76.9013,62.58,79,95,1.99,overcast clouds
19,Rongcheng,CN,30.634,117.8517,44.42,61,0,2.89,clear sky
20,Punta Arenas,CL,-53.15,-70.9167,55.51,41,20,20.71,few clouds
21,Ciudad Guayana,VE,8.3533,-62.6528,82.53,77,86,8.52,overcast clouds
22,Qaanaaq,GL,77.484,-69.3632,19.83,81,100,6.04,overcast clouds
23,Nikolskoye,RU,59.7035,30.7861,-0.6,98,8,4.79,clear sky
24,Puri,IN,19.8,85.85,72.37,90,100,12.44,overcast clouds
25,Khatanga,RU,71.9667,102.5,-22.94,100,99,6.76,overcast clouds
26,Kruisfontein,ZA,-34.0033,24.7314,62.89,91,74,6.8,broken clouds
27,Medyn,RU,54.9692,35.8586,26.53,99,99,3.02,overcast clouds
28,Takoradi,GH,4.8845,-1.7554,81.0,83,58,10.0,broken clouds
29,Mar Del Plata,AR,-38.0023,-57.5575,66.22,76,0,14.0,clear sky
30,Mataura,NZ,-46.1927,168.8643,54.48,48,90,4.56,overcast clouds
31,Isangel,VU,-19.55,169.2667,84.31,79,75,0.0,broken clouds
32,Laguna,US,38.421,-121.4238,69.64,82,75,0.0,broken clouds
33,Mahebourg,MU,-20.4081,57.7,78.26,78,75,9.22,broken clouds
34,New Norfolk,AU,-42.7826,147.0587,61.66,50,51,1.99,broken clouds
35,Kulhudhuffushi,MV,6.6221,73.07,80.91,76,55,8.9,broken clouds
36,Avarua,CK,-21.2078,-159.775,82.45,83,38,8.05,moderate rain
37,Loja,EC,-3.9931,-79.2042,71.01,50,90,11.5,light rain
38,Thompson,CA,55.7435,-97.8558,-18.24,76,1,8.05,clear sky
39,Srednekolymsk,RU,67.45,153.6833,-48.71,100,71,4.79,broken clouds
40,Saint George,US,37.1041,-113.5841,72.36,24,1,3.0,clear sky
41,Hofn,IS,64.2539,-15.2082,41.22,92,100,30.71,heavy intensity rain
42,Ixtapa,MX,20.7,-105.2,83.43,61,75,6.91,broken clouds
43,Cimarron Hills,US,38.8586,-104.6989,66.04,11,75,13.8,broken clouds
44,Oussouye,SN,12.485,-16.5469,75.29,64,99,4.41,overcast clouds
45,Atuona,PF,-9.8,-139.0333,78.49,75,5,18.3,clear sky
46,Sistranda,NO,63.7256,8.834,22.96,69,77,14.99,broken clouds
47,Znamenskoye,RU,57.1281,73.8282,30.2,94,100,8.19,overcast clouds
48,Bredasdorp,ZA,-34.5322,20.0403,60.28,96,100,8.05,light rain
49,Chokurdakh,RU,70.6333,147.9167,-41.57,99,58,5.95,broken clouds
50,Namibe,AO,-15.1961,12.1522,72.59,62,2,8.66,clear sky
51,Arraial Do Cabo,BR,-22.9661,-42.0278,75.16,88,20,16.11,few clouds
52,Katsuura,JP,35.1333,140.3,48.31,73,100,9.06,overcast clouds
53,Guatire,VE,10.4762,-66.5427,79.3,89,27,4.07,scattered clouds
54,Butaritari,KI,3.0707,172.7902,80.82,83,100,11.95,moderate rain
55,Kapaa,US,22.0752,-159.319,79.12,70,40,4.0,scattered clouds
56,Kasongo-Lunda,CD,-6.4667,16.8167,69.6,97,100,0.69,light rain
57,Lata,PT,40.1629,-8.3327,53.82,94,49,2.91,scattered clouds
58,Southbridge,US,42.0751,-72.0334,39.58,59,99,3.0,overcast clouds
59,Bilibino,RU,68.0546,166.4372,-19.28,99,100,2.64,overcast clouds
60,Edd,ER,13.9297,41.6925,80.13,55,0,18.21,clear sky
61,Panama,PA,9.0,-80.0,85.57,93,63,6.33,broken clouds
62,Gat,IL,31.61,34.7642,61.39,59,15,8.16,few clouds
63,Jaguey Grande,CU,22.5269,-81.1286,79.45,48,2,1.39,clear sky
64,Hobyo,SO,5.3505,48.5268,78.57,76,13,15.88,few clouds
65,Sao Filipe,CV,14.8961,-24.4956,75.42,74,64,13.78,broken clouds
66,Scarborough,GB,54.2797,-0.4044,41.07,90,55,3.49,broken clouds
67,Ust-Nera,RU,64.5667,143.2,-26.7,97,100,5.77,overcast clouds
68,Mezen,RU,65.8522,44.24,8.29,86,16,7.29,few clouds
69,Florence,IT,43.7667,11.25,45.3,92,0,3.44,clear sky
70,Cayenne,GF,4.9333,-52.3333,77.04,91,75,1.99,broken clouds
71,Canatlan,MX,24.5167,-104.7833,72.25,18,100,14.72,overcast clouds
72,Half Moon Bay,US,37.4636,-122.4286,70.3,78,1,1.99,mist
73,Taoudenni,ML,22.6783,-3.9836,63.01,20,100,9.46,overcast clouds
74,Amarastii De Jos,RO,43.95,24.1667,36.81,89,100,4.99,overcast clouds
75,East London,ZA,-33.0153,27.9116,69.24,95,100,3.13,overcast clouds
76,Marawi,PH,7.9986,124.2928,63.64,96,100,1.77,overcast clouds
77,Kirakira,SB,-10.4544,161.9205,82.22,82,99,9.24,overcast clouds
78,Qurayyat,SA,31.3318,37.3428,51.98,58,0,6.91,clear sky
79,Cherskiy,RU,68.75,161.3,-47.02,100,85,4.65,overcast clouds
80,Cape Town,ZA,-33.9258,18.4232,62.1,90,75,5.01,light rain
81,Tiksi,RU,71.6872,128.8694,-15.2,95,100,6.2,overcast clouds
82,Saldanha,ZA,-33.0117,17.9442,60.85,93,13,15.57,few clouds
83,Norman Wells,CA,65.282,-126.8329,-11.97,82,65,4.43,broken clouds
84,Bakel,SN,14.905,-12.4568,82.11,13,96,11.3,overcast clouds
85,Mayumba,GA,-3.432,10.6554,78.67,90,99,3.06,light rain
86,Dekar,BW,-21.5333,21.9333,71.26,66,63,14.09,broken clouds
87,Ponta Delgada,PT,37.7333,-25.6667,64.51,63,75,5.75,broken clouds
88,Bluff,NZ,-46.6,168.3333,54.81,50,72,12.84,broken clouds
89,Saskylakh,RU,71.9167,114.0833,-27.94,97,100,4.03,overcast clouds
90,Ust-Kuyga,RU,70.0167,135.6,-25.06,100,100,3.22,overcast clouds
91,Suntar,RU,62.1444,117.6319,-23.06,98,64,3.98,broken clouds
92,Tasiilaq,GL,65.6145,-37.6368,29.98,92,99,26.8,snow
93,Lima,PE,-12.0432,-77.0282,71.91,75,90,16.11,overcast clouds
94,Flinders,AU,-34.5833,150.8552,66.2,74,98,6.13,overcast clouds
95,Ialibu,PG,-6.2821,143.9935,59.63,87,83,1.83,broken clouds
96,Shingu,JP,33.7333,135.9833,51.66,90,99,5.19,overcast clouds
97,Albany,US,42.6001,-73.9662,37.81,61,97,4.52,overcast clouds
98,Yarada,IN,17.65,83.2667,77.32,94,75,2.3,mist
99,Copiapo,CL,-27.3667,-70.3333,58.69,31,10,6.78,clear sky
100,La Huerta,MX,19.4667,-104.65,82.89,54,98,6.89,overcast clouds
101,Xuddur,SO,4.1213,43.8894,73.44,54,53,9.89,broken clouds
102,Liberia,LR,6.5,-9.5,75.45,90,100,2.95,overcast clouds
103,Covington,US,39.0837,-84.5086,62.51,77,90,1.99,overcast clouds
104,Murray Bridge,AU,-35.1167,139.2667,74.86,52,68,0.92,broken clouds
105,Maple Creek,CA,49.9168,-109.4848,2.97,78,100,12.66,overcast clouds
106,Vaini,TO,-21.2,-175.2,80.76,89,75,13.8,broken clouds
107,Geraldton,AU,-28.7667,114.6,67.12,82,1,8.05,clear sky
108,Grindavik,IS,63.8424,-22.4338,40.95,93,75,17.27,moderate rain
109,Ponta Do Sol,PT,32.6667,-17.1,66.83,73,33,8.86,scattered clouds
110,Guerrero Negro,MX,27.9769,-114.0611,68.65,66,1,15.68,clear sky
111,Jamestown,US,42.097,-79.2353,43.92,49,90,13.0,overcast clouds
112,Castro,BR,-24.7911,-50.0119,64.58,86,91,4.59,overcast clouds
113,Klaksvik,FO,62.2266,-6.589,38.32,62,37,17.38,scattered clouds
114,Saint-Philippe,RE,-21.3585,55.7679,76.55,81,37,10.27,scattered clouds
115,Biak,ID,-0.9131,122.8766,76.05,90,100,6.71,overcast clouds
116,Staryy Nadym,RU,65.6118,72.6842,-28.34,100,28,7.11,scattered clouds
117,San Cristobal,VE,7.7669,-72.225,77.18,57,70,3.13,broken clouds
118,Faanui,PF,-16.4833,-151.75,81.34,66,34,17.13,scattered clouds
119,Ladario,BR,-19.0047,-57.6017,73.22,99,100,8.95,light rain
120,Mount Isa,AU,-20.7333,139.5,76.77,65,99,16.11,overcast clouds
121,Kaoma,ZM,-14.7833,24.8,76.59,50,100,9.55,overcast clouds
122,Gold Coast,AU,-28.0,153.4333,79.16,73,66,3.0,broken clouds
123,Cranbrook,CA,49.4999,-115.7688,27.84,68,20,3.44,few clouds
124,Lebu,CL,-37.6167,-73.65,62.98,69,0,14.52,clear sky
125,Torbay,CA,47.6666,-52.7314,32.76,73,20,6.91,few clouds
126,Itarema,BR,-2.9248,-39.9167,80.91,80,8,16.6,clear sky
127,Wanning,CN,18.8003,110.3967,61.93,71,64,9.08,broken clouds
128,Tecolutla,MX,20.4833,-97.0167,85.86,73,7,12.17,clear sky
129,Yenagoa,NG,4.9247,6.2642,77.9,89,100,4.99,overcast clouds
130,Georgetown,MY,5.4112,100.3354,77.9,80,20,5.75,few clouds
131,Tuatapere,NZ,-46.1333,167.6833,54.82,53,87,6.49,overcast clouds
132,Sherbakul,RU,54.6316,72.3963,22.68,90,100,8.48,overcast clouds
133,Kodiak,US,57.79,-152.4072,33.31,75,90,5.75,light snow
134,Mandali,IQ,33.7499,45.5541,59.99,38,76,3.62,broken clouds
135,Tuktoyaktuk,CA,69.4541,-133.0374,-18.4,76,40,8.05,scattered clouds
136,Picota,PE,-6.9197,-76.3304,86.49,65,95,1.12,moderate rain
137,Bengkulu,ID,-3.8004,102.2655,74.91,89,95,6.73,overcast clouds
138,Luanda,AO,-8.8368,13.2343,78.12,85,86,10.67,light rain
139,Broken Hill,AU,-31.95,141.4333,73.11,28,40,8.05,scattered clouds
140,Tambopata,PE,-12.7333,-69.1833,73.29,94,90,4.61,moderate rain
141,Petropavlovsk-Kamchatskiy,RU,53.0452,158.6483,25.39,59,75,8.95,broken clouds
142,Dikson,RU,73.5069,80.5464,-1.03,94,100,9.22,overcast clouds
143,Tevaitoa,PF,-16.7833,-151.5,81.54,66,66,17.31,broken clouds
144,Fortuna,US,40.5982,-124.1573,55.33,93,90,1.01,overcast clouds
145,Kodinsk,RU,58.6881,99.1844,22.37,97,100,2.08,light snow
146,Auch,FR,43.65,0.5833,44.26,96,31,5.99,light rain
147,Nemuro,JP,43.3236,145.575,40.39,71,2,12.24,clear sky
148,Loreto,MX,22.2667,-101.9667,71.26,21,99,12.84,overcast clouds
149,Ancud,CL,-41.8697,-73.8203,74.73,62,45,5.97,scattered clouds
150,Alofi,NU,-19.0595,-169.9187,80.49,78,78,19.57,light rain
151,Bambous Virieux,MU,-20.3428,57.7575,78.22,78,75,9.22,broken clouds
152,Bridgetown,BB,13.1,-59.6167,81.09,69,75,20.71,broken clouds
153,Ormara,PK,25.2088,64.6357,72.37,28,0,12.28,clear sky
154,Senneterre,CA,48.3835,-77.2328,8.82,88,100,4.18,overcast clouds
155,Santiago,CL,-33.4569,-70.6483,90.18,26,0,17.27,clear sky
156,Chapleau,CA,47.8405,-83.4034,15.89,92,75,8.05,broken clouds
157,Saint-Francois,FR,46.4154,3.9054,38.64,92,75,11.5,broken clouds
158,Liverpool,GB,53.4106,-2.9779,40.77,90,75,0.0,broken clouds
159,Kamaishi,JP,39.2667,141.8833,39.96,77,6,8.05,clear sky
160,Sungaipenuh,ID,-2.0833,101.3833,63.72,96,99,1.28,overcast clouds
161,Makali,SL,8.6333,-11.6667,72.88,89,20,1.63,few clouds
162,Meadow Lake,US,34.8014,-106.5436,65.17,25,0,10.56,clear sky
163,Coihaique,CL,-45.5752,-72.0662,69.75,46,75,6.91,broken clouds
164,Dnipryany,UA,46.7463,33.2729,39.31,83,99,9.08,overcast clouds
165,Qaqortoq,GL,60.7167,-46.0333,27.1,79,100,30.6,overcast clouds
166,Talcahuano,CL,-36.7167,-73.1167,65.88,59,0,14.97,clear sky
167,Constitucion,CL,-35.3333,-72.4167,66.34,62,6,4.72,clear sky
168,Bayan,CN,46.0833,127.4,18.82,93,100,7.02,overcast clouds
169,Yerbogachen,RU,61.2767,108.0108,-21.89,100,95,2.51,overcast clouds
170,Praia Da Vitoria,PT,38.7333,-27.0667,60.76,88,75,5.01,broken clouds
171,Chingirlau,KZ,51.095,54.0814,31.87,99,100,8.1,light snow
172,Caravelas,BR,-17.7125,-39.2481,74.71,85,0,5.06,clear sky
173,Batticaloa,LK,7.7102,81.6924,77.77,85,3,3.31,clear sky
174,Obregon,NI,11.9566,-85.9636,89.69,59,4,14.05,clear sky
175,Kavieng,PG,-2.5744,150.7967,82.65,80,95,5.75,moderate rain
176,Nara,JP,34.6851,135.8049,48.97,71,95,2.15,moderate rain
177,Port Moresby,PG,-9.4431,147.1797,81.82,78,75,4.61,broken clouds
178,Shelburne,CA,44.0787,-80.2041,30.09,94,100,15.55,snow
179,Plettenberg Bay,ZA,-34.0527,23.3716,65.26,84,97,12.88,overcast clouds
180,Mopti,ML,14.6667,-4.0,77.02,14,40,10.25,scattered clouds
181,Barao De Melgaco,BR,-16.1944,-55.9675,77.52,80,78,2.93,moderate rain
182,Portland,US,45.5234,-122.6762,48.51,79,75,1.01,broken clouds
183,Kaitangata,NZ,-46.2817,169.8464,53.92,57,96,7.34,overcast clouds
184,Boone,US,39.0334,-92.3335,68.25,71,94,3.0,overcast clouds
185,Khandbari,NP,27.3747,87.2039,57.76,71,16,3.22,few clouds
186,Fort Frances,CA,48.5999,-93.4003,25.02,59,90,8.01,light snow
187,Chuy,UY,-33.6971,-53.4616,65.3,82,98,7.87,overcast clouds
188,Puerto Ayora,EC,-0.7393,-90.3518,76.96,83,57,10.0,broken clouds
189,Palmer,US,42.1584,-72.3287,40.03,59,75,5.75,broken clouds
190,Lompoc,US,34.6391,-120.4579,82.02,59,1,14.97,clear sky
191,Washington,US,47.5001,-120.5015,39.69,55,88,2.46,overcast clouds
192,Vanimo,PG,-2.6741,141.3028,84.56,70,96,4.56,overcast clouds
193,Puerto Rico,AR,-26.796,-55.024,80.83,49,33,2.35,scattered clouds
194,Haines Junction,CA,60.7522,-137.5108,0.66,99,100,2.13,overcast clouds
195,Pitimbu,BR,-7.4706,-34.8086,81.19,78,48,14.63,scattered clouds
196,Masuda,JP,34.6667,131.85,40.73,76,7,5.35,clear sky
197,Akyab,MM,20.15,92.9,76.19,80,28,5.3,scattered clouds
198,Carnarvon,AU,-24.8667,113.6333,73.47,73,0,16.11,clear sky
199,Cabo San Lucas,MX,22.8909,-109.9124,82.06,49,75,1.01,broken clouds
200,Bardiyah,LY,31.7561,25.0865,60.67,66,0,9.44,clear sky
201,Hilo,US,19.7297,-155.09,76.73,88,75,13.8,heavy intensity rain
202,Eyrarbakki,IS,63.863,-21.1481,41.05,89,100,10.11,overcast clouds
203,Huntsville,US,34.7304,-86.5861,70.79,78,75,1.99,broken clouds
204,Malinovka,BY,53.8579,27.4374,24.3,95,100,4.56,light snow
205,Bathsheba,BB,13.2167,-59.5167,81.21,69,75,20.71,broken clouds
206,Rawson,AR,-43.3002,-65.1023,64.81,58,29,14.47,scattered clouds
207,Sinfra,CI,6.6167,-5.9167,74.57,85,73,3.78,broken clouds
208,Terrak,NO,65.087,12.3715,19.27,83,3,11.34,clear sky
209,Nome,US,64.5011,-165.4064,32.07,87,90,25.32,snow
210,Gimli,CA,50.6336,-96.9907,12.43,72,100,19.57,overcast clouds
211,Vardo,NO,70.3705,31.1107,10.15,78,19,22.3,few clouds
212,Narsaq,GL,60.9167,-46.05,26.82,68,100,21.85,overcast clouds
213,Almaznyy,RU,48.0448,40.045,33.94,96,100,3.15,overcast clouds
214,Pinheiro Machado,BR,-31.5783,-53.3811,64.06,90,43,9.51,scattered clouds
215,San Jose De Guanipa,VE,8.8872,-64.1651,79.39,65,67,10.98,broken clouds
216,Cracow,US,43.7424,-82.8199,33.15,100,90,13.8,snow
217,Bandarbeyla,SO,9.4942,50.8122,76.21,64,5,16.08,clear sky
218,Sorland,NO,67.667,12.6934,24.87,65,76,10.69,broken clouds
219,Tual,ID,-5.6667,132.75,82.44,78,99,13.87,overcast clouds
220,Najran,SA,17.4924,44.1277,54.25,38,0,1.48,clear sky
221,Nuuk,GL,64.1835,-51.7216,27.21,74,75,23.02,light shower snow
222,Mountain Home,US,43.133,-115.6912,47.68,43,1,25.32,clear sky
223,San Patricio,US,28.017,-97.5169,82.81,79,100,14.2,overcast clouds
224,Itoman,JP,26.1247,127.6694,66.97,65,20,5.75,few clouds
225,Teplyk,UA,48.6657,29.745,35.76,98,100,10.18,overcast clouds
226,Tiarei,PF,-17.5333,-149.3333,86.02,74,68,16.06,broken clouds
227,Jambi,ID,-1.6,103.6167,73.15,99,100,2.37,moderate rain
228,Naze,JP,28.3667,129.4833,63.52,71,71,17.54,broken clouds
229,Douentza,ML,14.9951,-2.9517,72.63,16,43,6.31,scattered clouds
230,Kirensk,RU,57.7853,108.1119,19.89,95,100,7.27,light snow
231,Pahrump,US,36.2083,-115.9839,75.25,12,5,3.0,clear sky
232,Leningradskiy,RU,69.3833,178.4167,-3.69,98,100,15.05,light snow
233,Plerin,FR,48.5425,-2.7798,47.68,76,75,4.0,broken clouds
234,Salalah,OM,17.0151,54.0924,75.29,33,0,8.05,clear sky
235,Komsomolskiy,UZ,40.4272,71.7189,40.42,75,100,4.61,mist
236,Dubbo,AU,-32.25,148.6167,57.33,94,90,13.8,light rain
237,Korgen,NO,66.0771,13.8153,17.31,89,3,7.45,clear sky
238,Marshfield,US,44.6689,-90.1718,31.95,86,90,4.61,overcast clouds
239,Hasaki,JP,35.7333,140.8333,45.28,62,100,9.71,overcast clouds
240,Longhua,CN,23.6137,114.1919,46.54,55,5,3.27,clear sky
241,Karratha,AU,-20.7377,116.8463,87.13,31,30,15.86,scattered clouds
242,Ilulissat,GL,69.2167,-51.1,28.42,86,75,16.11,light snow
243,Banjar,ID,-8.19,114.9675,78.66,94,100,5.82,moderate rain
244,Vao,NC,-22.6667,167.4833,76.24,81,100,16.89,overcast clouds
245,Denpasar,ID,-8.65,115.2167,78.46,94,75,17.27,heavy intensity rain
246,Bethel,US,41.3712,-73.414,43.12,52,1,4.61,clear sky
247,Vila Velha,BR,-20.3297,-40.2925,78.75,87,40,5.99,scattered clouds
248,High Level,CA,58.5169,-117.136,-14.69,76,1,0.0,clear sky
249,Esperance,AU,-33.8667,121.9,62.44,65,88,11.92,overcast clouds
250,Vestmanna,FO,62.1564,-7.1664,36.52,70,90,16.11,overcast clouds
251,Inirida,CO,3.8653,-67.9239,76.33,91,85,2.01,overcast clouds
252,Havoysund,NO,70.9963,24.6622,30.43,94,99,31.21,light snow
253,Yellowknife,CA,62.456,-114.3525,-19.59,84,20,3.44,few clouds
254,Aitape,PG,-3.1374,142.3475,84.63,73,93,4.07,overcast clouds
255,Ketchikan,US,55.3422,-131.6461,30.67,80,90,3.44,overcast clouds
256,Santa Rosa,PH,14.3122,121.1114,73.38,76,78,7.49,broken clouds
257,Athabasca,CA,54.7169,-113.2854,-0.58,67,42,8.03,scattered clouds
258,Abu Kamal,SY,34.4506,40.9171,52.79,43,9,6.82,clear sky
259,Payo,ID,-3.7508,103.6372,71.78,98,100,2.1,overcast clouds
260,Saryozek,KZ,44.3583,77.9753,36.03,65,100,3.0,overcast clouds
261,Rocha,UY,-34.4833,-54.3333,61.07,97,86,5.23,overcast clouds
262,Makurdi,NG,7.7411,8.5121,80.6,33,58,3.71,broken clouds
263,Felanitx,ES,39.4696,3.1483,52.95,64,34,8.12,scattered clouds
264,Launceston,AU,-41.45,147.1667,61.81,69,90,1.01,overcast clouds
265,Wyndham,US,37.6985,-77.6125,55.26,52,90,1.01,overcast clouds
266,Prokhorovka,RU,51.0374,36.7325,22.57,68,100,5.61,overcast clouds
267,Santa Maria,BR,-29.6842,-53.8069,81.7,54,20,6.91,few clouds
268,Merauke,ID,-8.4667,140.3333,81.23,79,100,3.78,overcast clouds
269,Chaiyaphum,TH,15.75,102.0,58.57,68,67,7.87,broken clouds
270,Provideniya,RU,64.3833,-173.3,30.36,93,90,22.37,snow
271,Yanaul,RU,56.2719,54.9309,13.96,81,100,8.34,overcast clouds
272,Aegviidu,EE,59.2858,25.6142,11.66,89,33,4.99,scattered clouds
273,Santa Vitoria Do Palmar,BR,-33.5189,-53.3681,65.95,79,89,8.5,overcast clouds
274,Scottsbluff,US,41.8666,-103.6672,28.63,70,90,15.01,light snow
275,Iskateley,RU,67.6803,53.1512,20.1,84,100,18.54,overcast clouds
276,Saint-Pierre,RE,-21.3393,55.4781,76.64,75,0,6.91,clear sky
277,Meulaboh,ID,4.1363,96.1285,75.85,87,93,3.69,overcast clouds
278,College,US,64.8569,-147.8028,7.9,77,75,4.61,broken clouds
279,Ribeira Grande,PT,38.5167,-28.7,63.93,73,72,7.83,broken clouds
280,Husavik,IS,66.0449,-17.3389,42.71,73,100,27.47,moderate rain
281,Bonavista,CA,48.6499,-53.1147,33.12,63,94,17.43,overcast clouds
282,Pyrzyce,PL,53.1462,14.8926,34.14,95,100,5.84,overcast clouds
283,Ayan,RU,56.45,138.1667,21.4,67,100,6.02,overcast clouds
284,Lillooet,CA,50.6856,-121.942,30.96,53,87,1.14,overcast clouds
285,Goderich,CA,43.7501,-81.7165,32.92,93,100,17.27,snow
286,Dhule,IN,20.9,74.7833,73.06,59,88,2.37,overcast clouds
287,Mbigou,GA,-1.9005,11.906,69.53,98,100,0.72,moderate rain
288,Tigil,RU,57.8,158.6667,22.75,92,100,23.91,snow
289,Coruripe,BR,-10.1256,-36.1756,77.88,83,79,11.59,broken clouds
290,Chapais,CA,49.7834,-74.8492,-0.62,98,99,4.18,overcast clouds
291,Tortoli,IT,39.9256,9.6572,46.22,71,20,4.61,few clouds
292,Crotone,IT,39.0851,17.1178,50.09,76,29,15.73,scattered clouds
293,Broome,US,42.2506,-75.833,41.0,60,90,1.99,overcast clouds
294,Khirkiya,IN,22.1674,76.8605,64.04,54,19,6.02,few clouds
295,Puerto Baquerizo Moreno,EC,-0.9,-89.6,72.59,78,75,10.36,broken clouds
296,George,ZA,-33.963,22.4617,64.36,81,80,7.76,broken clouds
297,Itacoatiara,BR,-3.1431,-58.4442,80.26,77,81,1.95,broken clouds
298,Huinan,CN,42.6225,126.2614,30.97,91,100,5.64,overcast clouds
299,Shenjiamen,CN,29.9576,122.298,54.84,68,0,7.56,clear sky
300,Stephenville Crossing,CA,48.5,-58.4318,28.53,86,75,10.36,light shower snow
301,Namwala,ZM,-15.7504,26.4384,76.86,35,92,5.77,overcast clouds
302,Starosubkhangulovo,RU,53.1031,57.4423,28.67,98,100,1.39,light snow
303,Raposa,BR,-6.5167,-44.1833,72.73,90,84,2.68,broken clouds
304,Antofagasta,CL,-23.65,-70.4,63.68,68,37,5.57,scattered clouds
305,Wamba,NG,8.9333,8.6,77.31,29,70,4.76,broken clouds
306,Darhan,MN,49.4867,105.9228,12.47,85,17,7.65,few clouds
307,Naushahro Firoz,PK,26.8424,68.123,65.44,28,26,3.47,scattered clouds
308,Porto De Moz,BR,-1.7483,-52.2383,75.27,94,97,2.46,moderate rain
309,Tabuk,PH,17.4189,121.4443,66.78,91,85,1.99,overcast clouds
310,Luderitz,NA,-26.6481,15.1594,60.75,88,0,10.04,clear sky
311,Katobu,ID,-4.9408,122.5276,78.6,85,94,5.5,light rain
312,Cozumel,MX,20.5083,-86.9458,82.47,78,40,8.01,scattered clouds
313,Leshukonskoye,RU,64.8989,45.7622,4.1,93,24,4.72,few clouds
314,Anadyr,RU,64.75,177.4833,5.5,84,90,32.99,heavy snow
315,Pangnirtung,CA,66.1451,-65.7125,7.74,97,100,6.91,light snow
316,Amboasary,MG,-25.0333,46.3833,76.84,86,0,5.86,clear sky
317,Honningsvag,NO,70.9821,25.9704,29.95,80,75,21.85,light snow
318,Victoria,HK,22.2855,114.1577,64.33,55,34,1.01,scattered clouds
319,Polistena,IT,38.406,16.08,55.35,92,52,1.66,broken clouds
320,Whitehorse,CA,60.7161,-135.0538,-5.91,83,75,20.0,broken clouds
321,Lasa,IT,46.6166,10.7002,27.48,92,95,5.59,overcast clouds
322,Fairbanks,US,64.8378,-147.7164,7.92,77,1,0.0,clear sky
323,Minsk,BY,53.9,27.5667,24.55,95,100,4.5,overcast clouds
324,Buraydah,SA,26.326,43.975,57.65,24,18,11.86,few clouds
325,Hithadhoo,MV,-0.6,73.0833,81.27,78,100,12.3,overcast clouds
326,Puntarenas,CR,9.9763,-84.8384,89.53,80,26,5.57,scattered clouds
327,La Cruz,MX,23.9167,-106.9,81.46,58,99,1.99,overcast clouds
328,Shushtar,IR,32.0455,48.8567,61.38,34,78,6.38,broken clouds
329,Balikpapan,ID,-1.2675,116.8289,77.99,89,40,5.75,moderate rain
330,Martapura,ID,-3.4167,114.85,77.09,94,90,4.61,overcast clouds
331,Agartala,IN,23.8364,91.275,67.95,99,100,4.03,light rain
332,Ekhabi,RU,53.5102,142.9671,6.78,96,86,5.17,overcast clouds
333,Airai,TL,-8.9266,125.4092,65.5,85,99,1.07,overcast clouds
334,Gushikawa,JP,26.3544,127.8686,66.2,70,1,12.66,clear sky
335,Dunedin,NZ,-45.8742,170.5036,54.81,66,97,3.0,overcast clouds
336,Ostrovnoy,RU,68.0531,39.5131,9.59,73,83,23.38,broken clouds
337,Mogadishu,SO,2.0371,45.3438,79.32,74,75,15.3,broken clouds
338,Kedrovka,RU,55.5333,86.05,27.48,94,100,11.34,overcast clouds
339,Avera,US,33.194,-82.5271,69.67,69,100,5.03,overcast clouds
340,Medicine Hat,CA,50.0501,-110.6683,6.51,73,90,1.99,overcast clouds
341,Ville-Marie,CA,47.3335,-79.433,8.6,77,100,7.18,overcast clouds
342,Boa Vista,BR,2.8197,-60.6733,85.98,58,0,6.91,clear sky
343,Kapustin Yar,RU,48.5831,45.7372,42.75,93,100,4.52,overcast clouds
344,Gorontalo,ID,0.5412,123.0595,78.64,89,89,2.77,overcast clouds
345,Wajir,KE,1.7471,40.0573,78.75,67,64,12.44,broken clouds
346,Jining,CN,35.405,116.5814,38.95,58,25,2.55,scattered clouds
347,Severo-Kurilsk,RU,50.6789,156.125,31.68,77,94,16.49,overcast clouds
348,Lewistown,US,40.5992,-77.5714,48.18,36,90,6.91,overcast clouds
349,Dudinka,RU,69.4058,86.1778,-16.38,98,100,21.12,light snow
350,Yuancheng,CN,36.652,107.7896,30.33,40,15,5.82,few clouds
351,Pak Phanang,TH,8.3511,100.202,75.07,70,65,9.37,broken clouds
352,Deputatskiy,RU,69.3,139.9,-24.68,97,100,2.91,overcast clouds
353,Beringovskiy,RU,63.05,179.3167,6.84,81,100,35.99,overcast clouds
354,Nuevo Casas Grandes,MX,30.4167,-107.9167,66.74,25,0,8.01,clear sky
355,Casablanca,MA,33.5928,-7.6192,60.33,72,3,8.01,clear sky
356,Nhulunbuy,AU,-12.2333,136.7667,84.81,70,69,2.3,broken clouds
357,Diapaga,BF,12.0708,1.7889,76.21,18,7,6.31,clear sky
358,Matara,LK,5.9485,80.5353,75.33,91,71,4.99,broken clouds
359,Mount Gambier,AU,-37.8333,140.7667,64.31,55,74,6.91,broken clouds
360,Bahia Blanca,AR,-38.7196,-62.2724,73.06,49,0,7.74,clear sky
361,Nacala,MZ,-14.5428,40.6728,77.22,87,37,4.9,scattered clouds
362,Pevek,RU,69.7008,170.3133,-9.47,96,100,17.13,light snow
363,Khuchni,RU,41.9499,47.9485,42.08,58,53,5.14,broken clouds
364,Urusha,RU,54.05,122.9,8.2,79,78,6.64,broken clouds
365,Menongue,AO,-14.6585,17.691,62.8,94,100,7.2,light rain
366,Bonfim,BR,3.0833,-59.95,82.72,61,97,7.94,overcast clouds
367,Magaria,NE,12.9983,8.9099,70.63,16,15,10.33,few clouds
368,Tateyama,JP,34.9833,139.8667,48.22,77,100,11.5,overcast clouds
369,Dingle,PH,10.9995,122.6711,73.22,89,40,6.87,scattered clouds
370,Verkhnevilyuysk,RU,63.4453,120.3167,-29.47,94,27,5.32,scattered clouds
371,Freeport,US,40.6576,-73.5832,47.01,52,1,4.0,clear sky
372,Kiunga,PG,-6.1219,141.2906,80.06,82,80,1.81,broken clouds
373,Vila Franca Do Campo,PT,37.7167,-25.4333,64.2,85,37,3.8,scattered clouds
374,Pemangkat,ID,1.1667,108.9667,79.45,81,100,9.64,overcast clouds
375,Hailey,US,43.5196,-114.3153,48.06,27,1,17.27,clear sky
376,Coquimbo,CL,-29.9533,-71.3436,60.53,82,40,11.5,scattered clouds
377,Marsa Matruh,EG,31.3525,27.2453,62.8,77,40,10.36,scattered clouds
378,Preobrazheniye,RU,42.9019,133.9064,39.72,95,91,6.33,overcast clouds
379,Dauphin,CA,51.1494,-100.0502,3.34,72,90,16.11,light snow
380,Oxford,GB,51.7522,-1.256,40.91,94,0,8.05,clear sky
381,San Quintin,MX,30.4833,-115.95,64.04,73,0,14.76,clear sky
382,Byron Bay,AU,-28.65,153.6167,75.87,80,81,6.87,light rain
383,Warri,NG,5.5167,5.75,78.28,89,98,4.07,overcast clouds
384,Bonthe,SL,7.5264,-12.505,80.55,80,15,8.61,few clouds
385,Gazojak,TM,41.1875,61.4036,37.71,75,7,9.62,clear sky
386,Whitianga,NZ,-36.8333,175.7,71.58,75,60,9.19,broken clouds
387,Sur,OM,22.5667,59.5289,72.28,72,0,4.72,clear sky
388,Kahului,US,20.8947,-156.47,77.85,82,90,4.61,light rain
389,Sitka,US,57.0531,-135.33,35.49,75,90,10.36,light snow
390,Northam,GB,51.0333,-4.2167,41.02,71,83,4.7,broken clouds
391,Talnakh,RU,69.4865,88.3972,-16.8,99,100,13.47,snow
392,Zamosc,PL,50.7231,23.252,31.84,99,100,3.36,overcast clouds
393,Iquitos,PE,-3.7481,-73.2472,78.84,89,75,1.14,broken clouds
394,Mazamari,PE,-11.3258,-74.5308,71.51,97,100,0.98,overcast clouds
395,Aklavik,CA,68.2191,-135.0107,-10.37,88,11,8.41,few clouds
396,Sao Joao Da Barra,BR,-21.6403,-41.0511,75.6,85,32,14.14,scattered clouds
397,Moranbah,AU,-22.0016,148.0466,81.5,55,43,14.05,scattered clouds
398,Lavrentiya,RU,65.5833,-171.0,29.25,96,100,19.08,snow
399,Kupang,ID,-10.1667,123.5833,79.38,100,75,3.44,broken clouds
400,Marsh Harbour,BS,26.5412,-77.0636,76.66,77,4,15.03,clear sky
401,Adrar,MR,20.5022,-10.0711,61.5,13,100,10.47,overcast clouds
402,Arona,ES,28.0996,-16.681,60.82,60,20,26.46,few clouds
403,Obidos,BR,-1.9175,-55.5181,79.79,74,77,3.53,broken clouds
404,Songjianghe,CN,42.1859,127.479,30.04,87,74,6.38,broken clouds
405,Clyde River,CA,70.4692,-68.5914,10.63,85,100,29.93,light snow
406,Kayes,ML,14.0,-11.0,81.99,12,80,11.65,broken clouds
407,Zhigansk,RU,66.7697,123.3711,-28.28,95,100,6.62,overcast clouds
408,Pringsewu,ID,-5.3582,104.9744,72.91,97,100,1.12,overcast clouds
409,Shar,KZ,49.5886,81.0453,19.02,85,94,7.61,overcast clouds
410,Rockland,US,41.1668,-74.0496,45.45,54,100,4.74,overcast clouds
411,Imbituba,BR,-28.24,-48.6703,72.82,95,100,12.57,overcast clouds
412,Springbok,ZA,-29.6643,17.8865,52.74,87,85,5.61,overcast clouds
413,Falkensee,DE,52.5667,13.0833,35.49,96,100,5.57,light snow
414,Dickinson,US,29.4608,-95.0513,77.27,86,75,1.99,broken clouds
415,Galveston,US,29.3669,-94.9669,77.22,87,20,3.0,few clouds
416,Shakiso,ET,5.75,38.9167,52.95,69,9,3.38,clear sky
417,Awbari,LY,26.5921,12.7805,51.03,25,1,8.77,clear sky
418,Kearney,US,40.6995,-99.0815,43.36,42,1,19.57,clear sky
419,Treinta Y Tres,UY,-33.2333,-54.3833,63.81,90,95,9.42,overcast clouds
420,La Tuque,CA,47.4334,-72.7824,10.65,85,100,2.3,overcast clouds
421,Saint Anthony,US,45.0205,-93.218,39.15,68,90,3.0,overcast clouds
422,Necochea,AR,-38.5473,-58.7368,65.03,75,0,9.17,clear sky
423,Myslenice,PL,49.8338,19.9383,37.38,99,100,0.98,light snow
424,Westport,US,41.1415,-73.3579,44.91,60,1,7.0,clear sky
425,Jiwani,PK,25.05,61.7417,73.85,36,6,6.98,clear sky
426,Tangjiazhuang,CN,39.7333,118.45,39.22,44,99,12.33,overcast clouds
427,Bassila,BJ,9.0081,1.6654,78.1,21,97,3.96,overcast clouds
428,Eureka,US,40.8021,-124.1637,57.67,81,70,1.99,broken clouds
429,Chinhoyi,ZW,-17.3667,30.2,74.55,35,20,7.02,few clouds
430,Borujerd,IR,33.8973,48.7516,41.16,23,2,5.44,clear sky
431,Marabba,SD,12.35,32.1833,79.59,25,2,10.58,clear sky
432,San Roque,ES,36.2107,-5.3842,58.01,58,1,13.8,clear sky
433,Lorengau,PG,-2.0226,147.2712,86.27,72,65,16.33,broken clouds
434,Quatre Cocos,MU,-20.2078,57.7625,78.1,71,28,11.77,scattered clouds
435,Issoudun,FR,47.0,1.8333,41.65,93,90,10.36,overcast clouds
436,Rosa Zarate,EC,0.3333,-79.4667,75.47,85,98,4.7,overcast clouds
437,Palasa,IN,18.7667,84.4167,72.16,91,87,2.62,overcast clouds
438,Eyl,SO,7.9803,49.8164,74.7,67,38,13.38,scattered clouds
439,Kattivakkam,IN,13.2167,80.3167,81.07,91,1,0.87,clear sky
440,Vitoria,BR,-20.3194,-40.3378,78.66,87,40,7.0,scattered clouds
441,Muravlenko,RU,63.7898,74.523,-20.11,94,95,7.31,overcast clouds
442,Baijiantan,CN,45.6333,85.1833,29.8,68,100,4.92,overcast clouds
443,Aracati,BR,-4.5617,-37.7697,82.18,77,42,16.98,scattered clouds
444,Faro,PT,37.0194,-7.9322,55.18,67,0,8.05,clear sky
445,Iqaluit,CA,63.7506,-68.5145,10.13,72,90,13.0,light snow
446,Ahipara,NZ,-35.1667,173.1667,74.77,66,56,9.86,broken clouds
447,Evensk,RU,61.95,159.2333,-14.67,80,24,7.94,few clouds
448,Port Lincoln,AU,-34.7333,135.8667,64.36,61,3,5.55,clear sky
449,Soto La Marina,MX,23.7667,-98.2167,82.78,53,65,14.18,broken clouds
450,Sorong,ID,-0.8833,131.25,81.14,83,96,4.5,overcast clouds
451,Luau,AO,-10.7073,22.2247,62.19,94,56,2.89,light rain
452,Bonoua,CI,5.2741,-3.595,83.82,87,5,4.65,clear sky
453,The Valley,AI,18.217,-63.0578,81.1,69,20,13.8,few clouds
454,Filingue,NE,14.3521,3.3168,77.47,13,0,7.72,clear sky
455,Samarai,PG,-10.6167,150.6667,83.43,73,99,9.62,overcast clouds
456,Riachao,BR,-7.3619,-46.6172,74.3,87,97,2.98,overcast clouds
457,Puerto Escondido,MX,15.85,-97.0667,86.83,62,1,5.75,clear sky
458,Osoyoos,CA,49.0331,-119.4524,36.99,46,100,5.75,overcast clouds
459,Acapulco,MX,16.8634,-99.8901,85.82,70,1,8.05,clear sky
460,Parau,NZ,-36.9672,174.6141,76.89,79,75,18.41,broken clouds
461,Kununurra,AU,-15.7667,128.7333,76.98,88,90,4.61,overcast clouds
462,Gumdag,TM,39.2061,54.5906,46.74,65,97,10.54,overcast clouds
463,Kouango,CF,4.9934,19.9619,76.14,70,99,4.41,overcast clouds
464,Lakatoro,VU,-16.0999,167.4164,83.64,70,20,7.61,few clouds
465,Alice Springs,AU,-23.7,133.8833,72.95,56,3,5.75,clear sky
466,Dormagen,DE,51.1,6.8333,41.0,91,100,2.33,overcast clouds
467,Hirado,JP,33.3597,129.5531,43.95,66,85,6.33,overcast clouds
468,Tamiahua,MX,21.2667,-97.45,77.7,75,5,11.88,clear sky
469,Eirunepe,BR,-6.6603,-69.8736,72.12,100,100,0.83,overcast clouds
470,Maldonado,UY,-34.6667,-54.9167,67.39,94,52,7.31,broken clouds
471,Chiredzi,ZW,-21.05,31.6667,77.52,59,15,7.94,few clouds
472,Xiamen,CN,24.4798,118.0819,61.25,88,40,2.24,scattered clouds
473,Camalu,MX,30.85,-116.0667,71.42,64,2,9.15,clear sky
474,Sao Miguel Do Araguaia,BR,-13.275,-50.1628,74.05,91,83,4.34,broken clouds
475,Vestmannaeyjar,IS,63.4427,-20.2734,44.76,77,100,19.22,overcast clouds
476,Guarapari,BR,-20.6667,-40.4975,78.69,87,49,9.6,scattered clouds
477,Nantucket,US,41.2835,-70.0995,43.97,61,1,3.44,clear sky
478,Petropavlovka,RU,50.6114,105.3196,9.81,89,84,3.71,broken clouds
479,Shache,CN,38.4167,77.2406,29.34,34,100,1.9,overcast clouds
480,Pisco,PE,-13.7,-76.2167,69.85,78,75,16.11,broken clouds
481,Flin Flon,CA,54.7682,-101.865,-9.56,64,20,6.91,few clouds
482,Saint-Joseph,RE,-21.3667,55.6167,75.56,79,42,9.53,scattered clouds
483,Zhob,PK,31.3411,69.4481,43.29,53,29,4.74,scattered clouds
484,Nurobod,UZ,40.9056,69.8023,38.25,64,71,2.21,broken clouds
485,Zharkent,KZ,44.1628,80.0,37.2,56,100,3.91,overcast clouds
486,Spokane,US,47.6166,-117.3677,34.34,40,1,1.99,clear sky
487,Tarko-Sale,RU,64.9225,77.785,-32.94,100,53,1.83,broken clouds
488,Smithers,CA,54.7804,-127.1743,16.12,92,90,3.44,overcast clouds
489,Okhotsk,RU,59.3833,143.3,-12.73,88,19,12.37,few clouds
490,Atasu,KZ,48.6814,71.6433,31.71,98,100,6.58,light snow
491,Rio Grande,BR,-32.035,-52.0986,69.94,82,21,11.92,few clouds
492,Bara,NG,10.3744,10.7288,74.88,27,52,8.12,broken clouds
493,Boyolangu,ID,-8.1181,111.8935,75.78,92,100,4.54,overcast clouds
494,Eastbourne,GB,50.7687,0.2845,44.11,83,61,5.01,broken clouds
495,Champerico,GT,14.3,-91.9167,93.74,67,3,6.71,clear sky
496,Victor Harbor,AU,-35.5667,138.6167,76.19,78,64,1.01,broken clouds
497,Toora-Khem,RU,52.4675,96.11,-5.71,100,94,1.03,overcast clouds
498,Kidal,ML,18.4411,1.4078,73.4,15,62,5.44,broken clouds
499,Qasigiannguit,GL,68.8193,-51.1922,28.65,63,100,18.7,overcast clouds
500,Bodrum,TR,37.0383,27.4292,60.28,75,34,8.34,scattered clouds
501,Acara,BR,-1.9608,-48.1967,75.81,92,93,1.1,overcast clouds
502,Alekseyevsk,RU,57.8406,108.3492,19.92,95,100,8.1,light snow
503,Maneromango,TZ,-7.1988,38.7848,68.13,98,52,1.03,broken clouds
504,Anori,BR,-3.7728,-61.6442,78.75,82,90,0.87,moderate rain
505,Dublin,US,37.7021,-121.9358,67.12,69,1,3.44,haze
506,Rhymney,GB,51.76,-3.2855,39.9,87,65,2.3,broken clouds
507,Mairinque,BR,-23.5458,-47.1833,70.41,88,75,8.32,broken clouds
508,Yumen,CN,40.2833,97.2,24.57,51,21,16.04,few clouds
509,Roma,US,43.2128,-75.4557,40.12,77,90,6.91,overcast clouds
510,Katangli,RU,51.7102,143.2326,21.07,86,73,9.95,broken clouds
511,Yelizovo,RU,53.1873,158.3805,26.74,63,75,8.99,broken clouds
512,Gamba,GA,-2.65,10.0,78.66,88,100,4.74,light rain
513,Olafsvik,IS,64.8945,-23.7142,41.23,90,100,7.11,overcast clouds
514,Vila,PT,42.0304,-8.1588,42.33,80,86,3.51,overcast clouds
515,Dzhebariki-Khaya,RU,62.2167,135.8,-10.66,98,100,4.43,overcast clouds
516,Kralendijk,BQ,12.15,-68.2667,82.38,69,40,17.27,scattered clouds
517,Bambanglipuro,ID,-7.95,110.2833,64.6,90,99,5.28,light rain
518,Sumbe,AO,-11.2061,13.8437,77.58,90,65,5.68,broken clouds
519,Morant Bay,JM,17.8815,-76.4093,83.82,84,57,11.43,broken clouds
520,Xining,CN,36.6167,101.7667,24.48,43,5,0.4,clear sky
521,Richards Bay,ZA,-28.783,32.0377,76.96,75,96,14.88,overcast clouds
522,Ganzhou,CN,28.8184,115.4327,47.01,57,0,2.17,clear sky
523,Asau,RO,46.4333,26.4,33.96,83,93,3.33,overcast clouds
524,Teresina,BR,-5.0892,-42.8019,85.71,66,0,3.44,clear sky
525,Verkhnyaya Inta,RU,65.9811,60.3094,-1.07,97,99,9.15,overcast clouds
526,Nyurba,RU,63.2842,118.3319,-29.87,95,36,5.41,scattered clouds
527,Kasempa,ZM,-13.4584,25.8338,70.38,39,38,5.21,scattered clouds
528,Paamiut,GL,61.994,-49.6678,25.16,68,100,13.98,light snow
529,Hami,CN,42.8,93.45,29.12,52,99,5.37,overcast clouds
530,Cockburn Town,TC,21.4612,-71.1419,80.62,77,67,21.63,broken clouds
531,Beshpagir,RU,45.0217,42.3808,44.02,90,65,3.4,broken clouds
532,Slave Lake,CA,55.2834,-114.769,1.38,60,1,10.36,clear sky
533,Norsup,VU,-16.0667,167.3833,83.68,70,19,7.76,few clouds
534,Itamarandiba,BR,-17.8572,-42.8589,63.7,98,26,3.53,scattered clouds
535,Tessalit,ML,20.1986,1.0114,66.69,16,66,8.55,broken clouds
536,Esik,KZ,43.3552,77.4525,33.22,64,88,3.94,overcast clouds
537,Belyy Yar,RU,53.6039,91.3903,10.29,88,64,0.0,mist
538,Kabo,CF,7.6994,18.629,78.08,30,97,2.48,overcast clouds
539,Les Cayes,HT,18.2,-73.75,77.32,80,38,5.79,scattered clouds
540,Russell,US,32.3502,-85.1999,71.2,68,1,4.61,clear sky
541,Hokitika,NZ,-42.7167,170.9667,61.5,55,96,6.93,overcast clouds
542,Patrocinio,BR,-18.9439,-46.9925,71.96,81,84,6.49,broken clouds
543,Faya,SA,18.3851,42.4509,55.51,70,0,1.79,clear sky
544,Quimper,FR,48.0,-4.1,45.28,76,75,11.5,broken clouds
545,Rosarito,MX,32.3333,-117.0333,74.62,62,0,8.66,clear sky
546,Jalu,LY,29.0331,21.5482,56.79,62,0,5.35,clear sky
547,Poum,NC,-20.2333,164.0167,81.05,74,15,10.74,few clouds
548,Riverton,US,40.5219,-111.9391,55.9,37,1,5.99,clear sky
549,Diego De Almagro,CL,-26.3667,-70.05,75.58,17,17,7.76,few clouds
550,Kaniama,CD,-7.5667,24.1833,64.8,96,74,2.73,light rain
551,Kokstad,ZA,-30.5472,29.4241,60.57,91,100,4.32,overcast clouds
552,Amahai,ID,-3.3333,128.9167,81.03,79,95,3.44,overcast clouds
553,Miyako,JP,39.6367,141.9525,39.61,68,3,4.65,clear sky
554,Yulara,AU,-25.2406,130.9889,69.64,68,40,12.66,scattered clouds
555,Araouane,ML,18.9048,-3.5265,62.91,14,62,11.16,broken clouds
556,Sayat,TM,38.7839,63.8803,39.07,79,0,10.54,clear sky
557,Kalabo,ZM,-14.97,22.6814,67.89,86,94,7.14,light rain
558,Velingara,SN,13.15,-14.1167,79.03,18,78,5.41,broken clouds
559,Ternate,ID,0.8,127.4,82.24,79,94,9.73,overcast clouds
560,Hay River,CA,60.8156,-115.7999,-13.02,70,1,3.44,clear sky
561,Baykit,RU,61.67,96.37,-8.07,96,100,3.04,overcast clouds
562,Magdagachi,RU,53.45,125.8,7.0,90,91,6.17,overcast clouds
563,La Asuncion,VE,11.0333,-63.8628,82.13,78,30,16.11,scattered clouds
564,Sangar,RU,63.9242,127.4739,-20.78,94,99,6.6,overcast clouds
565,Makushino,RU,55.2103,67.2442,28.69,97,100,5.82,overcast clouds
566,Coroiesti,RO,46.25,27.4833,35.98,95,100,4.07,overcast clouds
567,Minab,IR,27.1467,57.0801,60.3,50,16,1.86,few clouds
568,Wad Rawah,SD,15.1603,33.1397,77.7,25,0,11.36,clear sky
569,Kati,ML,12.7441,-8.0726,71.24,18,11,4.9,few clouds
570,Houma,US,29.5958,-90.7195,75.99,76,40,9.22,scattered clouds
571,Tonj,SS,7.2737,28.6822,80.2,31,61,3.27,broken clouds
572,Fort Nelson,CA,58.8053,-122.7002,-15.21,70,20,5.75,few clouds
573,Nurlat,RU,54.4277,50.8051,24.75,91,73,4.54,broken clouds
574,Rio Gallegos,AR,-51.6226,-69.2181,64.45,16,20,28.77,few clouds
575,Arlit,NE,18.7369,7.3853,68.43,17,3,6.08,clear sky
576,Sinnamary,GF,5.3833,-52.95,77.58,88,95,8.28,light rain
577,Nelson,NZ,-41.2833,173.2833,60.69,95,100,8.01,overcast clouds
578,Lashio,MM,22.9333,97.75,55.31,94,10,1.83,clear sky
579,Mnogovershinnyy,RU,53.9353,139.9242,1.31,91,94,3.11,overcast clouds
580,Oyon,PE,-10.6681,-76.7731,45.25,95,100,2.64,overcast clouds
581,Udalguri,IN,26.7667,92.1333,64.63,69,69,3.89,broken clouds
582,Sao Lourenco Do Oeste,BR,-26.3592,-52.8511,67.93,63,36,2.66,scattered clouds
583,Zhaotong,CN,27.3167,103.7167,42.22,88,39,2.59,scattered clouds
584,Log,RU,49.4844,43.8613,31.68,95,100,9.46,overcast clouds
585,Verkhoyansk,RU,67.5447,133.385,-20.25,99,100,1.01,overcast clouds
586,Lac-Au-Saumon,CA,48.421,-67.3476,16.3,86,97,5.64,overcast clouds
587,Tumpat,MY,6.1978,102.171,71.58,100,20,0.0,few clouds
588,Esna,EG,25.2934,32.554,55.42,45,92,7.94,overcast clouds
589,Coahuayana,MX,18.7333,-103.6833,83.75,65,97,3.56,overcast clouds
590,Pingliang,CN,35.5392,106.6861,33.22,35,2,4.05,clear sky
591,Winslow,US,35.0242,-110.6974,64.96,25,1,4.23,clear sky
592,Padang,ID,-0.9492,100.3543,73.45,86,99,3.91,overcast clouds
593,Nishihara,JP,26.1842,127.7558,66.25,66,40,11.5,scattered clouds
594,Nagato,JP,34.3833,131.2,46.31,78,4,5.06,clear sky
595,Kamina,CD,-8.7386,24.9906,63.55,93,94,5.28,overcast clouds
596,Severnyy-Kospashskiy,RU,59.0925,57.8008,-4.4,77,99,1.05,overcast clouds
597,Chebarkul,RU,54.9749,60.3633,24.64,87,100,2.42,overcast clouds
598,Los Llanos De Aridane,ES,28.6585,-17.9182,63.12,63,75,11.01,broken clouds
599,Tilichiki,RU,60.4667,166.1,-0.13,96,88,3.65,overcast clouds
600,Muroto,JP,33.2833,134.15,42.84,64,96,7.83,overcast clouds
601,Tazmalt,DZ,36.3868,4.3989,46.92,72,90,15.26,overcast clouds
602,Kalakamati,BW,-20.5929,27.3121,71.44,69,98,11.07,overcast clouds
603,Kyshtovka,RU,56.555,76.6271,28.31,94,100,11.68,overcast clouds
604,Kerkrade,NL,50.8658,6.0625,39.7,86,100,0.92,overcast clouds
605,Hauterive,FR,46.0901,3.4459,39.96,97,100,6.96,overcast clouds
606,Poyarkovo,RU,49.6,128.6833,-5.91,100,73,3.42,broken clouds
607,Quang Ngai,VN,15.1167,108.8,66.25,94,100,7.9,overcast clouds
608,Touros,BR,-5.1989,-35.4608,83.3,78,63,15.64,broken clouds
609,Siteki,SZ,-26.45,31.95,67.5,76,94,0.78,overcast clouds
610,Elbistan,TR,38.2059,37.1983,37.29,74,0,0.54,clear sky
611,Deyang,CN,31.1302,104.382,51.46,64,40,3.85,scattered clouds
612,Chardara,KZ,41.2547,67.9692,42.78,68,4,5.21,clear sky
613,Beloha,MG,-25.1667,45.05,72.3,94,2,4.32,clear sky
614,Mitsamiouli,KM,-11.3847,43.2844,80.82,76,20,11.95,few clouds
615,Rafsanjan,IR,30.4067,55.9939,55.04,20,94,4.05,overcast clouds
616,Sao Jose Da Coroa Grande,BR,-8.8978,-35.1478,77.72,86,46,9.22,scattered clouds
617,Oume,JP,35.7839,139.2431,46.06,72,90,4.61,overcast clouds
618,Calabar,NG,4.9517,8.322,77.25,91,100,3.06,overcast clouds
619,Flic En Flac,MU,-20.2742,57.3631,78.53,72,4,9.57,clear sky
620,Carballo,ES,43.213,-8.691,51.49,93,79,3.02,broken clouds
621,Diamantino,BR,-14.4086,-56.4461,76.64,88,98,1.3,moderate rain
622,Cabra,ES,37.4725,-4.4421,47.64,80,3,2.42,clear sky
623,Manado,ID,1.487,124.8455,77.77,88,20,1.14,few clouds
624,Vilyuysk,RU,63.7553,121.6247,-28.57,93,69,7.58,broken clouds
625,Port Augusta,AU,-32.5,137.7667,73.71,59,93,4.81,overcast clouds
626,Khonsa,IN,27.0167,95.5667,56.84,84,100,4.03,overcast clouds
627,Fez,MA,34.0372,-4.9998,52.05,87,75,4.61,broken clouds
628,Makakilo City,US,21.3469,-158.0858,71.92,79,90,4.61,moderate rain
629,Hambantota,LK,6.1241,81.1185,77.05,89,9,7.05,clear sky
630,Brokopondo,SR,4.75,-55.1667,77.31,89,98,7.76,overcast clouds
631,Fomboni,KM,-12.28,43.7425,81.79,77,7,15.35,clear sky
632,Brooks,CA,50.5834,-111.8851,9.23,70,86,5.75,overcast clouds
633,Bukan,IR,36.521,46.2089,42.6,34,100,1.86,overcast clouds
634,Montepuez,MZ,-13.1256,38.9997,71.98,88,99,5.44,overcast clouds
635,Bastia,FR,42.6667,9.3333,50.31,64,0,13.0,clear sky
636,Erenhot,CN,43.6475,111.9767,21.09,81,3,2.21,clear sky
637,Kayerkan,RU,69.3497,87.7602,-17.48,75,100,17.9,light snow
638,Kailua,US,21.4022,-157.7394,73.38,55,69,10.87,moderate rain
639,Puerto Leguizamo,CO,-0.1934,-74.7819,74.01,96,97,2.1,overcast clouds
640,Micheweni,TZ,-4.9667,39.8333,79.56,79,99,6.96,light rain
641,Gloggnitz,AT,47.6749,15.9389,37.02,92,100,4.54,overcast clouds
642,Kousseri,CM,12.0769,15.0306,80.56,18,71,10.36,broken clouds
643,Risor,NO,58.7206,9.2342,21.29,87,100,17.05,overcast clouds
644,Yonibana,SL,8.4447,-12.245,75.45,87,27,1.5,scattered clouds
645,Hualmay,PE,-11.0964,-77.6139,67.33,84,100,10.49,overcast clouds
646,Port Blair,IN,11.6667,92.75,78.39,70,24,11.43,few clouds
647,Felipe Carrillo Puerto,MX,19.5833,-88.05,76.46,78,15,4.25,few clouds
648,Koslan,RU,63.4564,48.8989,9.66,95,61,5.55,broken clouds
649,Vanavara,RU,60.34,102.2797,-1.19,99,100,2.48,overcast clouds
650,Afonso Claudio,BR,-20.0742,-41.1239,69.15,95,46,3.18,scattered clouds
651,Halifax,CA,44.6453,-63.5724,32.0,77,70,4.0,broken clouds
652,Swan Hill,AU,-35.3378,143.5544,73.83,44,99,13.47,overcast clouds
653,Wagar,SD,16.1525,36.2032,74.28,66,0,12.37,clear sky
654,Balykshi,KZ,47.0667,51.8667,33.8,86,75,4.47,mist
655,Presidente Olegario,BR,-18.4178,-46.4181,72.19,82,42,2.57,scattered clouds
656,Price,US,39.5994,-110.8107,56.46,18,1,9.22,clear sky
657,Buala,SB,-8.145,159.5921,80.4,85,100,14.56,moderate rain
658,Bac Lieu,VN,9.285,105.7244,70.66,88,100,8.12,overcast clouds
659,Hastings,GB,50.8552,0.5729,43.92,80,73,19.66,broken clouds
660,Marshall,US,34.3834,-86.3333,71.58,67,40,1.01,scattered clouds
661,Suifenhe,CN,44.4,131.1667,21.2,91,24,5.46,few clouds
662,Pontianak,ID,-0.0333,109.3333,75.18,100,75,1.14,broken clouds
663,Porto Belo,BR,-27.1578,-48.5531,73.35,90,92,8.57,overcast clouds
664,Galdar,ES,28.147,-15.6502,64.9,72,36,18.14,scattered clouds
665,Porto Novo,BJ,6.4965,2.6036,84.02,84,94,8.46,overcast clouds
666,Saint-Augustin,CA,51.226,-58.6502,22.55,61,100,8.1,overcast clouds
667,Terrace,CA,54.5163,-128.6035,29.43,93,90,3.44,overcast clouds
668,Novyy Urengoy,RU,66.0833,76.6333,-22.59,96,6,8.05,clear sky
669,Ballina,AU,-28.8667,153.5667,66.78,99,40,11.5,light rain
670,Labuhan,ID,-6.8844,112.2051,78.49,80,100,6.38,overcast clouds
671,Krasnoarmeysk,RU,51.0239,45.6969,24.3,88,74,9.91,broken clouds
672,Inta,RU,66.0317,60.1659,-1.07,98,99,10.51,overcast clouds
673,Ponnani,IN,10.767,75.9252,76.32,91,37,4.34,scattered clouds
674,Walvis Bay,NA,-22.9575,14.5053,61.75,72,0,3.44,clear sky
675,Las Vegas,US,36.175,-115.1372,77.11,12,20,4.0,few clouds
676,Emerald,AU,-23.5333,148.1667,82.98,57,90,11.5,overcast clouds
677,Port Macquarie,AU,-31.4333,152.9167,69.89,69,99,6.2,overcast clouds
678,Parati,BR,-23.2178,-44.7131,74.3,98,95,1.45,overcast clouds
679,Lodwar,KE,3.1191,35.5973,81.14,50,87,11.21,overcast clouds
680,Keti Bandar,PK,24.1447,67.4497,72.7,72,1,9.33,clear sky
681,Togul,RU,53.465,85.9128,10.24,98,99,3.09,overcast clouds
682,Baturaja,ID,-4.1333,104.1667,72.43,98,99,2.51,overcast clouds
683,Thunder Bay,CA,48.4001,-89.3168,30.56,89,90,18.41,snow
684,Yaan,NG,7.3833,8.5667,79.99,39,75,4.41,broken clouds
685,Birjand,IR,32.8663,59.2211,28.87,54,0,4.61,clear sky
686,Ahuimanu,US,21.4447,-157.8378,73.11,70,69,9.86,moderate rain
687,Indianola,US,41.3581,-93.5574,50.49,62,100,12.35,overcast clouds
688,Moerai,PF,-22.4333,-151.3333,77.99,79,87,14.7,light rain
689,Neuquen,AR,-38.9516,-68.0591,85.89,32,0,8.05,clear sky
690,Cidreira,BR,-30.1811,-50.2056,69.64,87,50,14.76,scattered clouds
691,Gap,FR,44.6667,6.0,17.06,89,41,6.06,light snow
692,Atherton,GB,53.5237,-2.4935,41.22,85,100,2.44,overcast clouds
693,Lamu,KE,-2.2717,40.902,80.82,79,96,9.28,overcast clouds
694,Mangrol,IN,21.1167,70.1167,72.32,60,0,11.43,clear sky
695,Miami Beach,US,25.7906,-80.1301,78.03,82,74,1.01,broken clouds
696,Mmabatho,ZA,-25.85,25.6333,63.48,88,79,6.6,broken clouds
697,Salinopolis,BR,-0.6136,-47.3561,79.83,85,27,11.68,scattered clouds
698,Seymchan,RU,62.8833,152.4333,-49.41,97,53,0.45,broken clouds
699,Ouadda,CF,8.0777,22.4007,76.48,26,94,7.29,overcast clouds
700,Hailar,CN,49.2,119.7,11.03,87,6,12.48,clear sky
